[
  {"name": "Jurong East", "code": "NS1", "line": "North-South Line", "lat": 1.3331, "lng": 103.7422},
  {"name": "Bukit Batok", "code": "NS2", "line": "North-South Line", "lat": 1.3491, "lng": 103.7495},
  {"name": "Bukit Gombak", "code": "NS3", "line": "North-South Line", "lat": 1.3587, "lng": 103.7517},
  {"name": "Choa Chu Kang", "code": "NS4", "line": "North-South Line", "lat": 1.3852, "lng": 103.7444},
  {"name": "Yew Tee", "code": "NS5", "line": "North-South Line", "lat": 1.3974, "lng": 103.7473},
  {"name": "Kranji", "code": "NS7", "line": "North-South Line", "lat": 1.4253, "lng": 103.7618},
  {"name": "Marsiling", "code": "NS8", "line": "North-South Line", "lat": 1.4326, "lng": 103.7744},
  {"name": "Woodlands", "code": "NS9", "line": "North-South Line", "lat": 1.4369, "lng": 103.7864},
  {"name": "Admiralty", "code": "NS10", "line": "North-South Line", "lat": 1.4407, "lng": 103.8010},
  {"name": "Sembawang", "code": "NS11", "line": "North-South Line", "lat": 1.4490, "lng": 103.8187},
  {"name": "Canberra", "code": "NS12", "line": "North-South Line", "lat": 1.4434, "lng": 103.8298},
  {"name": "Yishun", "code": "NS13", "line": "North-South Line", "lat": 1.4294, "lng": 103.8352},
  {"name": "Khatib", "code": "NS14", "line": "North-South Line", "lat": 1.4172, "lng": 103.8330},
  {"name": "Yio Chu Kang", "code": "NS15", "line": "North-South Line", "lat": 1.3817, "lng": 103.8449},
  {"name": "Ang Mo Kio", "code": "NS16", "line": "North-South Line", "lat": 1.3700, "lng": 103.8495},
  {"name": "Bishan", "code": "NS17", "line": "North-South Line", "lat": 1.3509, "lng": 103.8485},
  {"name": "Braddell", "code": "NS18", "line": "North-South Line", "lat": 1.3406, "lng": 103.8467},
  {"name": "Toa Payoh", "code": "NS19", "line": "North-South Line", "lat": 1.3328, "lng": 103.8476},
  {"name": "Novena", "code": "NS20", "line": "North-South Line", "lat": 1.3204, "lng": 103.8438},
  {"name": "Newton", "code": "NS21", "line": "North-South Line", "lat": 1.3130, "lng": 103.8385},
  {"name": "Orchard", "code": "NS22", "line": "North-South Line", "lat": 1.3036, "lng": 103.8318},
  {"name": "Somerset", "code": "NS23", "line": "North-South Line", "lat": 1.3003, "lng": 103.8388},
  {"name": "Dhoby Ghaut", "code": "NS24", "line": "North-South Line", "lat": 1.2991, "lng": 103.8458},
  {"name": "City Hall", "code": "NS25", "line": "North-South Line", "lat": 1.2931, "lng": 103.8521},
  {"name": "Raffles Place", "code": "NS26", "line": "North-South Line", "lat": 1.2839, "lng": 103.8515},
  {"name": "Marina Bay", "code": "NS27", "line": "North-South Line", "lat": 1.2763, "lng": 103.8548},
  {"name": "Marina South Pier", "code": "NS28", "line": "North-South Line", "lat": 1.2709, "lng": 103.8631},

  {"name": "Pasir Ris", "code": "EW1", "line": "East-West Line", "lat": 1.3724, "lng": 103.9495},
  {"name": "Tampines", "code": "EW2", "line": "East-West Line", "lat": 1.3532, "lng": 103.9452},
  {"name": "Simei", "code": "EW3", "line": "East-West Line", "lat": 1.3432, "lng": 103.9533},
  {"name": "Tanah Merah", "code": "EW4", "line": "East-West Line", "lat": 1.3272, "lng": 103.9468},
  {"name": "Bedok", "code": "EW5", "line": "East-West Line", "lat": 1.3239, "lng": 103.9303},
  {"name": "Kembangan", "code": "EW6", "line": "East-West Line", "lat": 1.3208, "lng": 103.9128},
  {"name": "Eunos", "code": "EW7", "line": "East-West Line", "lat": 1.3199, "lng": 103.9029},
  {"name": "Paya Lebar", "code": "EW8", "line": "East-West Line", "lat": 1.3177, "lng": 103.8929},
  {"name": "Aljunied", "code": "EW9", "line": "East-West Line", "lat": 1.3164, "lng": 103.8830},
  {"name": "Kallang", "code": "EW10", "line": "East-West Line", "lat": 1.3115, "lng": 103.8714},
  {"name": "Lavender", "code": "EW11", "line": "East-West Line", "lat": 1.3072, "lng": 103.8628},
  {"name": "Bugis", "code": "EW12", "line": "East-West Line", "lat": 1.3001, "lng": 103.8558},
  {"name": "City Hall", "code": "EW13", "line": "East-West Line", "lat": 1.2931, "lng": 103.8521},
  {"name": "Raffles Place", "code": "EW14", "line": "East-West Line", "lat": 1.2839, "lng": 103.8515},
  {"name": "Tanjong Pagar", "code": "EW15", "line": "East-West Line", "lat": 1.2764, "lng": 103.8456},
  {"name": "Outram Park", "code": "EW16", "line": "East-West Line", "lat": 1.2805, "lng": 103.8395},
  {"name": "Tiong Bahru", "code": "EW17", "line": "East-West Line", "lat": 1.2860, "lng": 103.8271},
  {"name": "Redhill", "code": "EW18", "line": "East-West Line", "lat": 1.2895, "lng": 103.8168},
  {"name": "Queenstown", "code": "EW19", "line": "East-West Line", "lat": 1.2941, "lng": 103.8024},
  {"name": "Commonwealth", "code": "EW20", "line": "East-West Line", "lat": 1.3025, "lng": 103.7982},
  {"name": "Buona Vista", "code": "EW21", "line": "East-West Line", "lat": 1.3070, "lng": 103.7905},
  {"name": "Dover", "code": "EW22", "line": "East-West Line", "lat": 1.3115, "lng": 103.7787},
  {"name": "Clementi", "code": "EW23", "line": "East-West Line", "lat": 1.3151, "lng": 103.7650},
  {"name": "Jurong East", "code": "EW24", "line": "East-West Line", "lat": 1.3331, "lng": 103.7422},
  {"name": "Chinese Garden", "code": "EW25", "line": "East-West Line", "lat": 1.3424, "lng": 103.7325},
  {"name": "Lakeside", "code": "EW26", "line": "East-West Line", "lat": 1.3442, "lng": 103.7212},
  {"name": "Boon Lay", "code": "EW27", "line": "East-West Line", "lat": 1.3387, "lng": 103.7061},
  {"name": "Pioneer", "code": "EW28", "line": "East-West Line", "lat": 1.3376, "lng": 103.6970},
  {"name": "Joo Koon", "code": "EW29", "line": "East-West Line", "lat": 1.3268, "lng": 103.6782},
  {"name": "Expo", "code": "CG1", "line": "East-West Line", "lat": 1.3348, "lng": 103.9615},
  {"name": "Changi Airport", "code": "CG2", "line": "East-West Line", "lat": 1.3575, "lng": 103.9884},

  {"name": "HarbourFront", "code": "NE1", "line": "North East Line", "lat": 1.2653, "lng": 103.8216},
  {"name": "Outram Park", "code": "NE3", "line": "North East Line", "lat": 1.2805, "lng": 103.8395},
  {"name": "Chinatown", "code": "NE4", "line": "North East Line", "lat": 1.2842, "lng": 103.8440},
  {"name": "Clarke Quay", "code": "NE5", "line": "North East Line", "lat": 1.2886, "lng": 103.8466},
  {"name": "Dhoby Ghaut", "code": "NE6", "line": "North East Line", "lat": 1.2991, "lng": 103.8458},
  {"name": "Little India", "code": "NE7", "line": "North East Line", "lat": 1.3064, "lng": 103.8490},
  {"name": "Farrer Park", "code": "NE8", "line": "North East Line", "lat": 1.3123, "lng": 103.8542},
  {"name": "Boon Keng", "code": "NE9", "line": "North East Line", "lat": 1.3193, "lng": 103.8616},
  {"name": "Potong Pasir", "code": "NE10", "line": "North East Line", "lat": 1.3311, "lng": 103.8691},
  {"name": "Woodleigh", "code": "NE11", "line": "North East Line", "lat": 1.3391, "lng": 103.8708},
  {"name": "Serangoon", "code": "NE12", "line": "North East Line", "lat": 1.3500, "lng": 103.8734},
  {"name": "Kovan", "code": "NE13", "line": "North East Line", "lat": 1.3602, "lng": 103.8853},
  {"name": "Hougang", "code": "NE14", "line": "North East Line", "lat": 1.3713, "lng": 103.8924},
  {"name": "Buangkok", "code": "NE15", "line": "North East Line", "lat": 1.3829, "lng": 103.8930},
  {"name": "Sengkang", "code": "NE16", "line": "North East Line", "lat": 1.3917, "lng": 103.8954},
  {"name": "Punggol", "code": "NE17", "line": "North East Line", "lat": 1.4046, "lng": 103.9020},

  {"name": "Dhoby Ghaut", "code": "CC1", "line": "Circle Line", "lat": 1.2991, "lng": 103.8458},
  {"name": "Bras Basah", "code": "CC2", "line": "Circle Line", "lat": 1.2967, "lng": 103.8507},
  {"name": "Esplanade", "code": "CC3", "line": "Circle Line", "lat": 1.2933, "lng": 103.8555},
  {"name": "Promenade", "code": "CC4", "line": "Circle Line", "lat": 1.2931, "lng": 103.8606},
  {"name": "Nicoll Highway", "code": "CC5", "line": "Circle Line", "lat": 1.2998, "lng": 103.8670},
  {"name": "Stadium", "code": "CC6", "line": "Circle Line", "lat": 1.3030, "lng": 103.8752},
  {"name": "Mountbatten", "code": "CC7", "line": "Circle Line", "lat": 1.3062, "lng": 103.8825},
  {"name": "Dakota", "code": "CC8", "line": "Circle Line", "lat": 1.3083, "lng": 103.8888},
  {"name": "Paya Lebar", "code": "CC9", "line": "Circle Line", "lat": 1.3177, "lng": 103.8929},
  {"name": "MacPherson", "code": "CC10", "line": "Circle Line", "lat": 1.3266, "lng": 103.8898},
  {"name": "Tai Seng", "code": "CC11", "line": "Circle Line", "lat": 1.3357, "lng": 103.8881},
  {"name": "Bartley", "code": "CC12", "line": "Circle Line", "lat": 1.3427, "lng": 103.8837},
  {"name": "Serangoon", "code": "CC13", "line": "Circle Line", "lat": 1.3500, "lng": 103.8734},
  {"name": "Lorong Chuan", "code": "CC14", "line": "Circle Line", "lat": 1.3516, "lng": 103.8639},
  {"name": "Bishan", "code": "CC15", "line": "Circle Line", "lat": 1.3509, "lng": 103.8485},
  {"name": "Marymount", "code": "CC16", "line": "Circle Line", "lat": 1.3492, "lng": 103.8394},
  {"name": "Caldecott", "code": "CC17", "line": "Circle Line", "lat": 1.3377, "lng": 103.8394},
  {"name": "Botanic Gardens", "code": "CC19", "line": "Circle Line", "lat": 1.3225, "lng": 103.8153},
  {"name": "Farrer Road", "code": "CC20", "line": "Circle Line", "lat": 1.3175, "lng": 103.8068},
  {"name": "Holland Village", "code": "CC21", "line": "Circle Line", "lat": 1.3119, "lng": 103.7961},
  {"name": "Buona Vista", "code": "CC22", "line": "Circle Line", "lat": 1.3070, "lng": 103.7905},
  {"name": "one-north", "code": "CC23", "line": "Circle Line", "lat": 1.2994, "lng": 103.7876},
  {"name": "Kent Ridge", "code": "CC24", "line": "Circle Line", "lat": 1.2935, "lng": 103.7845},
  {"name": "Haw Par Villa", "code": "CC25", "line": "Circle Line", "lat": 1.2827, "lng": 103.7817},
  {"name": "Pasir Panjang", "code": "CC26", "line": "Circle Line", "lat": 1.2760, "lng": 103.7916},
  {"name": "Labrador Park", "code": "CC27", "line": "Circle Line", "lat": 1.2715, "lng": 103.8023},
  {"name": "Telok Blangah", "code": "CC28", "line": "Circle Line", "lat": 1.2709, "lng": 103.8094},
  {"name": "HarbourFront", "code": "CC29", "line": "Circle Line", "lat": 1.2653, "lng": 103.8216},

  {"name": "Bukit Panjang", "code": "DT1", "line": "Downtown Line", "lat": 1.3786, "lng": 103.7637},
  {"name": "Cashew", "code": "DT2", "line": "Downtown Line", "lat": 1.3694, "lng": 103.7648},
  {"name": "Hillview", "code": "DT3", "line": "Downtown Line", "lat": 1.3626, "lng": 103.7672},
  {"name": "Beauty World", "code": "DT5", "line": "Downtown Line", "lat": 1.3414, "lng": 103.7759},
  {"name": "King Albert Park", "code": "DT6", "line": "Downtown Line", "lat": 1.3342, "lng": 103.7836},
  {"name": "Sixth Avenue", "code": "DT7", "line": "Downtown Line", "lat": 1.3302, "lng": 103.7957},
  {"name": "Tan Kah Kee", "code": "DT8", "line": "Downtown Line", "lat": 1.3256, "lng": 103.8067},
  {"name": "Botanic Gardens", "code": "DT9", "line": "Downtown Line", "lat": 1.3225, "lng": 103.8153},
  {"name": "Stevens", "code": "DT10", "line": "Downtown Line", "lat": 1.3194, "lng": 103.8262},
  {"name": "Newton", "code": "DT11", "line": "Downtown Line", "lat": 1.3130, "lng": 103.8385},
  {"name": "Little India", "code": "DT12", "line": "Downtown Line", "lat": 1.3064, "lng": 103.8490},
  {"name": "Rochor", "code": "DT13", "line": "Downtown Line", "lat": 1.3039, "lng": 103.8526},
  {"name": "Bugis", "code": "DT14", "line": "Downtown Line", "lat": 1.3001, "lng": 103.8558},
  {"name": "Promenade", "code": "DT15", "line": "Downtown Line", "lat": 1.2931, "lng": 103.8606},
  {"name": "Bayfront", "code": "DT16", "line": "Downtown Line", "lat": 1.2822, "lng": 103.8591},
  {"name": "Downtown", "code": "DT17", "line": "Downtown Line", "lat": 1.2797, "lng": 103.8525},
  {"name": "Telok Ayer", "code": "DT18", "line": "Downtown Line", "lat": 1.2821, "lng": 103.8483},
  {"name": "Chinatown", "code": "DT19", "line": "Downtown Line", "lat": 1.2842, "lng": 103.8440},
  {"name": "Fort Canning", "code": "DT20", "line": "Downtown Line", "lat": 1.2930, "lng": 103.8433},
  {"name": "Bencoolen", "code": "DT21", "line": "Downtown Line", "lat": 1.2993, "lng": 103.8502},
  {"name": "Jalan Besar", "code": "DT22", "line": "Downtown Line", "lat": 1.3052, "lng": 103.8550},
  {"name": "Bendemeer", "code": "DT23", "line": "Downtown Line", "lat": 1.3136, "lng": 103.8626},
  {"name": "Geylang Bahru", "code": "DT24", "line": "Downtown Line", "lat": 1.3215, "lng": 103.8714},
  {"name": "Mattar", "code": "DT25", "line": "Downtown Line", "lat": 1.3275, "lng": 103.8831},
  {"name": "MacPherson", "code": "DT26", "line": "Downtown Line", "lat": 1.3266, "lng": 103.8898},
  {"name": "Ubi", "code": "DT27", "line": "Downtown Line", "lat": 1.3297, "lng": 103.8991},
  {"name": "Kaki Bukit", "code": "DT28", "line": "Downtown Line", "lat": 1.3346, "lng": 103.9088},
  {"name": "Bedok North", "code": "DT29", "line": "Downtown Line", "lat": 1.3347, "lng": 103.9178},
  {"name": "Bedok Reservoir", "code": "DT30", "line": "Downtown Line", "lat": 1.3362, "lng": 103.9310},
  {"name": "Tampines West", "code": "DT31", "line": "Downtown Line", "lat": 1.3456, "lng": 103.9384},
  {"name": "Tampines", "code": "DT32", "line": "Downtown Line", "lat": 1.3532, "lng": 103.9452},
  {"name": "Tampines East", "code": "DT33", "line": "Downtown Line", "lat": 1.3560, "lng": 103.9548},
  {"name": "Upper Changi", "code": "DT34", "line": "Downtown Line", "lat": 1.3415, "lng": 103.9625},
  {"name": "Expo", "code": "DT35", "line": "Downtown Line", "lat": 1.3348, "lng": 103.9615},

  {"name": "Woodlands North", "code": "TE1", "line": "Thomson-East Coast Line", "lat": 1.4477, "lng": 103.7851},
  {"name": "Woodlands", "code": "TE2", "line": "Thomson-East Coast Line", "lat": 1.4369, "lng": 103.7864},
  {"name": "Woodlands South", "code": "TE3", "line": "Thomson-East Coast Line", "lat": 1.4273, "lng": 103.7932},
  {"name": "Springleaf", "code": "TE4", "line": "Thomson-East Coast Line", "lat": 1.3975, "lng": 103.8182},
  {"name": "Lentor", "code": "TE5", "line": "Thomson-East Coast Line", "lat": 1.3845, "lng": 103.8342},
  {"name": "Mayflower", "code": "TE6", "line": "Thomson-East Coast Line", "lat": 1.3713, "lng": 103.8374},
  {"name": "Bright Hill", "code": "TE7", "line": "Thomson-East Coast Line", "lat": 1.3616, "lng": 103.8333},
  {"name": "Upper Thomson", "code": "TE8", "line": "Thomson-East Coast Line", "lat": 1.3538, "lng": 103.8348},
  {"name": "Caldecott", "code": "TE9", "line": "Thomson-East Coast Line", "lat": 1.3377, "lng": 103.8394},
  {"name": "Stevens", "code": "TE11", "line": "Thomson-East Coast Line", "lat": 1.3194, "lng": 103.8262},
  {"name": "Napier", "code": "TE12", "line": "Thomson-East Coast Line", "lat": 1.3066, "lng": 103.8192},
  {"name": "Orchard Boulevard", "code": "TE13", "line": "Thomson-East Coast Line", "lat": 1.3055, "lng": 103.8315},
  {"name": "Orchard", "code": "TE14", "line": "Thomson-East Coast Line", "lat": 1.3036, "lng": 103.8318},
  {"name": "Great World", "code": "TE15", "line": "Thomson-East Coast Line", "lat": 1.2938, "lng": 103.8336},
  {"name": "Havelock", "code": "TE16", "line": "Thomson-East Coast Line", "lat": 1.2884, "lng": 103.8378},
  {"name": "Outram Park", "code": "TE17", "line": "Thomson-East Coast Line", "lat": 1.2805, "lng": 103.8395},
  {"name": "Maxwell", "code": "TE18", "line": "Thomson-East Coast Line", "lat": 1.2799, "lng": 103.8440},
  {"name": "Shenton Way", "code": "TE19", "line": "Thomson-East Coast Line", "lat": 1.2775, "lng": 103.8504},
  {"name": "Marina Bay", "code": "TE20", "line": "Thomson-East Coast Line", "lat": 1.2763, "lng": 103.8548},
  {"name": "Gardens by the Bay", "code": "TE22", "line": "Thomson-East Coast Line", "lat": 1.2811, "lng": 103.8633},
  {"name": "Tanjong Rhu", "code": "TE23", "line": "Thomson-East Coast Line", "lat": 1.2965, "lng": 103.8730},
  {"name": "Katong Park", "code": "TE24", "line": "Thomson-East Coast Line", "lat": 1.2985, "lng": 103.8848},
  {"name": "Tanjong Katong", "code": "TE25", "line": "Thomson-East Coast Line", "lat": 1.3060, "lng": 103.8980},
  {"name": "Marine Parade", "code": "TE26", "line": "Thomson-East Coast Line", "lat": 1.3053, "lng": 103.9073},
  {"name": "Marine Terrace", "code": "TE27", "line": "Thomson-East Coast Line", "lat": 1.3076, "lng": 103.9160},
  {"name": "Siglap", "code": "TE28", "line": "Thomson-East Coast Line", "lat": 1.3140, "lng": 103.9270},
  {"name": "Bayshore", "code": "TE29", "line": "Thomson-East Coast Line", "lat": 1.3190, "lng": 103.9400}
]
